[
    {"lat": 48.401082, "lng": 9.987608, "layer": "travel", "properties": {"name": "Ulm", "id": 1}},
	{"lat": 48.095147, "lng": 9.790152, "layer": "travel", "properties": {"name": "Biberach", "id": 2}},
    {"lat": 47.579782, "lng": 9.678933, "layer": "travel", "properties": {"name": "Lindau", "id": 3}},
	{"lat": 52.520007, "lng": 13.404954, "layer": "travel", "properties": {"name": "Berlin", "id": 4}},
	{"lat": 48.775846, "lng": 9.182932, "layer": "travel", "properties": {"name": "Stuttgart", "id": 5}},
	{"lat": 48.135125, "lng": 11.581981, "layer": "travel", "properties": {"name": "München", "id": 6}},
	{"lat": 50.110922, "lng": 8.682127, "layer": "travel", "properties": {"name": "Frankfurt-am-Main", "id": 7}},
    {"lat": 40.416775, "lng": -3.703790, "layer": "travel", "properties": {"name": "Madrid", "id": 8}},
    {"lat": 48.856614, "lng": 2.352222, "layer": "travel", "properties": {"name": "Paris", "id": 9}},
    {"lat": 47.497912, "lng": 19.040235, "layer": "travel", "properties": {"name": "Budapest", "id": 10}},
    {"lat": 59.329323, "lng": 18.068581, "layer": "travel", "properties": {"name": "Stockholm", "id": 11}},
    {"lat": 41.902783, "lng": 12.496366, "layer": "travel", "properties": {"name": "Rome", "id": 12}},
    {"lat": 50.075538, "lng": 14.437800, "layer": "travel", "properties": {"name": "Prague", "id": 13}},
    {"lat": 60.169856, "lng": 24.938379, "layer": "travel", "properties": {"name": "Helsinki", "id": 14}},
    {"lat": 60.451813, "lng": 22.266630, "layer": "travel", "properties": {"name": "Turku", "id": 15}},
    {"lat": 47.966924, "lng": 11.184414, "layer": "travel", "properties": {"name": "Andechs", "id": 16}},
    {"lat": 48.370545, "lng": 10.897790, "layer": "travel", "properties": {"name": "Augsburg", "id": 17}},
    {"lat": 48.061879, "lng": 9.607911, "layer": "travel", "properties": {"name": "Bad Buchau", "id": 18}},
    {"lat": 47.922700, "lng": 9.753282, "layer": "travel", "properties": {"name": "Bad Waldsee", "id": 19}},
    {"lat": 48.496896, "lng": 9.394875, "layer": "travel", "properties": {"name": "Bad Urach", "id": 20}},
    {"lat": 49.006890, "lng": 8.403653, "layer": "travel", "properties": {"name": "Karlsruhe", "id": 21}},
    {"lat": 48.091292, "lng": 9.228612, "layer": "travel", "properties": {"name": "Sigmaringen", "id": 22}},
    {"lat": 48.067936, "lng": 9.261781, "layer": "travel", "properties": {"name": "Sigmaringendorf", "id": 23}},
    {"lat": 48.050783, "lng": 10.870351, "layer": "travel", "properties": {"name": "Landsberg-am-Lech", "id": 24}},
    {"lat": 48.521636, "lng": 9.057645, "layer": "travel", "properties": {"name": "Tübingen", "id": 25}},
    {"lat": 48.539900, "lng": 9.286406, "layer": "travel", "properties": {"name": "Metzingen", "id": 26}},
    {"lat": 48.506939, "lng": 9.203804, "layer": "travel", "properties": {"name": "Reutlingen", "id": 27}},
    {"lat": 48.713190, "lng": 9.419726, "layer": "travel", "properties": {"name": "Plochingen", "id": 28}},
    {"lat": 49.398752, "lng": 8.672434, "layer": "travel", "properties": {"name": "Heidelberg", "id": 29}},
    {"lat": 49.487459, "lng": 8.466039, "layer": "travel", "properties": {"name": "Mannheim", "id": 30}},
    {"lat": 48.743342, "lng": 9.320112, "layer": "travel", "properties": {"name": "Esslingen-am-Neckar", "id": 31}},
    {"lat": 48.407304, "lng": 9.783545, "layer": "travel", "properties": {"name": "Blaubeuren", "id": 32}},
    {"lat": 48.390604, "lng": 10.006040, "layer": "travel", "properties": {"name": "Neu-Ulm", "id": 33}},
    {"lat": 47.500750, "lng": 9.742310, "layer": "travel", "properties": {"name": "Bregenz", "c": "Austria", "id": 34}},
    {"lat": 47.334287, "lng": 9.645246, "layer": "travel", "properties": {"name": "Götzis", "c": "Austria", "id": 35}},
    {"lat": 47.412400, "lng": 9.743790, "layer": "travel", "properties": {"name": "Dornbirn", "c": "Austria", "id": 36}},
    {"lat": 47.038692, "lng": 10.604827, "layer": "travel", "properties": {"name": "Serfaus", "c": "Austria", "id": 37}},
    {"lat": 47.240130, "lng": 10.739540, "layer": "travel", "properties": {"name": "Imst", "c": "Austria", "id": 38}},
    {"lat": 47.269212, "lng": 11.404102, "layer": "travel", "properties": {"name": "Innsbruck", "c": "Austria", "id": 39}},
    {"lat": 47.272888, "lng": 12.759674, "layer": "travel", "properties": {"name": "Kaprun", "c": "Austria", "id": 40}},
    {"lat": 47.444990, "lng": 12.391430, "layer": "travel", "properties": {"name": "Kitzbühel", "c": "Austria", "id": 41}},
    {"lat": 47.582370, "lng": 12.162750, "layer": "travel", "properties": {"name": "Kufstein", "c": "Austria", "id": 42}},
    {"lat": 47.403577, "lng": 10.880697, "layer": "travel", "properties": {"name": "Lermoos", "c": "Austria", "id": 43}},
    {"lat": 47.420843, "lng": 9.659446, "layer": "travel", "properties": {"name": "Lustenau", "c": "Austria", "id": 44}},
    {"lat": 47.279447, "lng": 12.479262, "layer": "travel", "properties": {"name": "Mittersill", "c": "Austria", "id": 45}},
    {"lat": 47.488790, "lng": 10.718650, "layer": "travel", "properties": {"name": "Reutte", "c": "Austria", "id": 46}},
    {"lat": 47.241280, "lng": 9.601900, "layer": "travel", "properties": {"name": "Feldkirch", "c": "Austria", "id": 47}},
    {"lat": 47.360831, "lng": 9.686719, "layer": "travel", "properties": {"name": "Hohenems", "c": "Austria", "id": 48}},
    {"lat": 47.323520, "lng": 12.796850, "layer": "travel", "properties": {"name": "Zell-am-See", "c": "Austria", "id": 49}},
    {"lat": 47.350200, "lng": 11.705840, "layer": "travel", "properties": {"name": "Schwaz", "c": "Austria", "id": 50}},
    {"lat": 47.353547, "lng": 9.649434, "layer": "travel", "properties": {"name": "Altach", "c": "Austria", "id": 51}},
    {"lat": 47.484923, "lng": 9.693663, "layer": "travel", "properties": {"name": "Hard", "c": "Austria", "id": 52}},
    {"lat": 47.459272, "lng": 9.635638, "layer": "travel", "properties": {"name": "Höchst", "c": "Austria", "id": 53}},
    {"lat": 47.474438, "lng": 9.730228, "layer": "travel", "properties": {"name": "Lauterach", "c": "Austria", "id": 54}},
    {"lat": 47.529679, "lng": 9.751304, "layer": "travel", "properties": {"name": "Lochau", "c": "Austria", "id": 55}},
    {"lat": 47.322749, "lng": 10.152766, "layer": "travel", "properties": {"name": "Mittelberg", "c": "Austria", "id": 56}}
]