[
    {"lat": 48.401082, "lng": 9.987608, "layer": "travel", "properties": {"name": "Ulm", "id": 1}},
	{"lat": 48.095147, "lng": 9.790152, "layer": "travel", "properties": {"name": "Biberach", "id": 2}},
    {"lat": 47.579782, "lng": 9.678933, "layer": "travel", "properties": {"name": "Lindau", "id": 3}},
	{"lat": 52.520007, "lng": 13.404954, "layer": "travel", "properties": {"name": "Berlin", "id": 4}},
	{"lat": 48.775846, "lng": 9.182932, "layer": "travel", "properties": {"name": "Stuttgart", "id": 5}},
	{"lat": 48.135125, "lng": 11.581981, "layer": "travel", "properties": {"name": "München", "id": 6}},
	{"lat": 50.110922, "lng": 8.682127, "layer": "travel", "properties": {"name": "Frankfurt-am-Main", "id": 7}},
    {"lat": 40.416775, "lng": -3.703790, "layer": "travel", "properties": {"name": "Madrid", "id": 8}},
    {"lat": 48.856614, "lng": 2.352222, "layer": "travel", "properties": {"name": "Paris", "id": 9}},
    {"lat": 47.497912, "lng": 19.040235, "layer": "travel", "properties": {"name": "Budapest", "id": 10}},
    {"lat": 59.329323, "lng": 18.068581, "layer": "travel", "properties": {"name": "Stockholm", "id": 11}},
    {"lat": 41.902783, "lng": 12.496366, "layer": "travel", "properties": {"name": "Rome", "id": 12}},
    {"lat": 50.075538, "lng": 14.437800, "layer": "travel", "properties": {"name": "Prague", "id": 13}},
    {"lat": 60.169856, "lng": 24.938379, "layer": "travel", "properties": {"name": "Helsinki", "id": 14}},
    {"lat": 60.451813, "lng": 22.266630, "layer": "travel", "properties": {"name": "Turku", "id": 15}},
    {"lat": 47.966924, "lng": 11.184414, "layer": "travel", "properties": {"name": "Andechs", "id": 16}},
    {"lat": 48.370545, "lng": 10.897790, "layer": "travel", "properties": {"name": "Augsburg", "id": 17}},
    {"lat": 48.061879, "lng": 9.607911, "layer": "travel", "properties": {"name": "Bad Buchau", "id": 18}},
    {"lat": 47.922700, "lng": 9.753282, "layer": "travel", "properties": {"name": "Bad Waldsee", "id": 19}},
    {"lat": 48.496896, "lng": 9.394875, "layer": "travel", "properties": {"name": "Bad Urach", "id": 20}},
    {"lat": 49.006890, "lng": 8.403653, "layer": "travel", "properties": {"name": "Karlsruhe", "id": 21}},
    {"lat": 48.091292, "lng": 9.228612, "layer": "travel", "properties": {"name": "Sigmaringen", "id": 22}},
    {"lat": 48.067936, "lng": 9.261781, "layer": "travel", "properties": {"name": "Sigmaringendorf", "id": 23}},
    {"lat": 48.050783, "lng": 10.870351, "layer": "travel", "properties": {"name": "Landsberg-am-Lech", "id": 24}},
    {"lat": 48.521636, "lng": 9.057645, "layer": "travel", "properties": {"name": "Tübingen", "id": 25}},
    {"lat": 48.539900, "lng": 9.286406, "layer": "travel", "properties": {"name": "Metzingen", "id": 26}},
    {"lat": 48.506939, "lng": 9.203804, "layer": "travel", "properties": {"name": "Reutlingen", "id": 27}},
    {"lat": 48.713190, "lng": 9.419726, "layer": "travel", "properties": {"name": "Plochingen", "id": 28}},
    {"lat": 49.398752, "lng": 8.672434, "layer": "travel", "properties": {"name": "Heidelberg", "id": 29}},
    {"lat": 49.487459, "lng": 8.466039, "layer": "travel", "properties": {"name": "Mannheim", "id": 30}},
    {"lat": 48.743342, "lng": 9.320112, "layer": "travel", "properties": {"name": "Esslingen-am-Neckar", "id": 31}},
    {"lat": 48.407304, "lng": 9.783545, "layer": "travel", "properties": {"name": "Blaubeuren", "id": 32}},
    {"lat": 48.390604, "lng": 10.006040, "layer": "travel", "properties": {"name": "Neu-Ulm", "id": 33}}
]